[{"Name":"Blue Room Babes","Address":"205 Payneham Road, St Peters, Adelaide, SA 5069","lat":-34.9079396,"lon":138.6292014},
{"Name":"Eden","Address":"11 Fullarton Rd, Kent Town SA 5067","lat":-34.9248073,"lon":138.6233788},
{"Name":"The Erotic Massage Parlour","Address":"207 Currie St, Adelaide SA 5000","lat":-34.9250759,"lon":138.5905258},
{"Name":"Gorgeous Girls","Address":"14 Crittenden Rd, Findon SA 5023","lat":-34.9006063,"lon":138.5401439},
{"Name":"Lourdes Massage & Relaxation Services","Address":"16 Halifax St, Adelaide SA 5000","lat":-34.93269085,"lon":138.601030226054},
{"Name":"Purrfections","Address":"225 Henley Beach Rd, Torrensville SA","lat":-34.9243314,"lon":138.5585261},
{"Name":"Stephie’s Erotic Full Body Massage","Address":"Kensington Rd, Norwood SA 5067","lat":-34.9278792,"lon":138.6238771},
{"Name":"88 on Logan","Address":"1/88 Logan Rd, Woolloongabba QLD 4102","lat":-27.4884096,"lon":153.0377421},
{"Name":"Asian Star on Meadow","Address":"1/32 Meadow Ave, Coopers Plains, QLD 4108","lat":-27.5655984,"lon":153.0236146},
{"Name":"Cleo’s on Nile","Address":"12 Nile St, Woolloongabba QLD 4102, Australia","lat":-27.488349,"lon":153.0378637},
{"Name":"Club 26","Address":"26 Magnesium Dr, Crestmead QLD 4132","lat":-27.6764364,"lon":153.0769906},
{"Name":"Ding Ding 83","Address":"83 Randolph St, Rocklea QLD 4106, Australia","lat":-27.563679,"lon":152.99814},
{"Name":"Miso Honey","Address":"120 Robinson Rd E, Geebung QLD 4034","lat":-27.3699451,"lon":153.055975518461},
{"Name":"Montecito","Address":"180 Abbotsford Rd, Bowen Hills, Brisbane, QLD","lat":-27.4472605,"lon":153.0378168},
{"Name":"Platinum 175","Address":"175 Abbotsford Road, Bowen Hills QLD 4006","lat":-27.4376287,"lon":153.04121},
{"Name":"Sky Angel ","Address":"61 Spine St, Sumner QLD 4074, Australia","lat":-27.5627145,"lon":152.9361355},
{"Name":"Viper Room","Address":"945 Fairfield Road, Yeerongpilly, Brisbane, QLD","lat":-27.5372797,"lon":153.0110043},
{"Name":"Yimi 476","Address":"476 Boundary Rd, Archerfield QLD 4108","lat":-27.5667846,"lon":153.0153761},
{"Name":"ACT Pretty Girls","Address":"3/77 Gladstone St, Fyshwick ACT 2609","lat":-35.3225465,"lon":149.1739377},
{"Name":"Anne Babe’s House","Address":"3/18 Wollongong St, Fyshwick ACT 2609","lat":-35.3263111,"lon":149.1786424},
{"Name":"Diamonds","Address":"77 Gladstone Street, Fyshwick, ACT 2609","lat":-35.3225465,"lon":149.1739377},
{"Name":"Langtrees of Canberra","Address":"5/32-34 Grimwade St, Mitchell ACT 2911, Australia ","lat":-35.216735,"lon":149.137576},
{"Name":"Lollipop Lounge","Address":"Unit 3/108 Gladstone Street, Fyshwick ACT 2609","lat":-35.3225465,"lon":149.1739377},
{"Name":"Pretty Women","Address":"6-8 Huddart Crt, Mitchell ACT 2911","lat":-35.2165869,"lon":149.1401997},
{"Name":"Tiffany’s Palace","Address":"72 Barrier St, Fyshwick, ACT 2609 ","lat":-35.3308912,"lon":149.1775712},
{"Name":"Le Penthouse Suite","Address":"Level 1, 15 Wharf Street, Coolangatta/North Tweed Gold Coast","lat":-28.169702,"lon":153.543066},
{"Name":"Luv Asian","Address":"1/29 Expansion St, Molendinar, Gold Goast, QLD","lat":-27.976852,"lon":153.356295},
{"Name":"Pentagon Grand","Address":"30 Jade Drive, Molendinar Gold Coast QLD 4214","lat":-27.9812389,"lon":153.3605234},
{"Name":"Pryana Rose","Address":"13/38 Eastern Service Rd, Stapylton QLD 4207","lat":-27.74085,"lon":153.234695},
{"Name":"Silks on Upton","Address":"44 Upton Street, Bundall Gold Coast, 4217, Queensland","lat":-28.0077442,"lon":153.410144729265},
{"Name":"Utopia in Paradise","Address":"2/37 Upton Street Bundall, 4217, QLD","lat":-28.0105668,"lon":153.4098303},
{"Name":"39 Tope Street","Address":"39 Tope St, South Melbourne Vic 3205","lat":-37.8312673,"lon":144.9635188},
{"Name":"The Boardroom","Address":"53 Market St, Southbank VIC 3006","lat":-37.829734,"lon":144.959656},
{"Name":"Cherry Blossoms","Address":"7 Park Street, South Melbourne, VIC 3205","lat":-37.8329439,"lon":144.9706437},
{"Name":"Collingwood Confidential","Address":"59 Rupert St, Collingwood VIC 3066","lat":-37.8072583,"lon":144.9887616},
{"Name":"Far Eastern Relaxation","Address":"77 Racecourse Rd, North Melbourne VIC 3051","lat":-37.7891761,"lon":144.9406831},
{"Name":"Gotham City","Address":"70-74 Clarke St, South Melbourne VIC 3205","lat":-37.8287553,"lon":144.9600393},
{"Name":"The Harem","Address":"55 Park St, South Melbourne VIC 3205","lat":-37.8333509,"lon":144.968603},
{"Name":"Manhattan Terrace","Address":"554-556 Swanston St, Melbourne VIC 3000","lat":-37.8036904,"lon":144.96368984734},
{"Name":"Melbourne Colosseum","Address":"45-47 Tope St, South Melbourne VIC 3205","lat":-37.8312673,"lon":144.9635188},
{"Name":"Pleasure Dome","Address":"44 Gladstone St, South Melbourne, VIC 3205","lat":-37.8298531,"lon":144.950113},
{"Name":"Scarlet Lady","Address":"4 Dummet Crescent, Clifton Hill, VIC 3068","lat":-37.787046,"lon":144.994044},
{"Name":"Silk Lotus","Address":"32 Montefiore St, Fairfield VIC 3078","lat":-37.7690872,"lon":145.0261394},
{"Name":"South Melbourne Day Spa","Address":"York Street, South Melbourne, VIC 3205","lat":-37.8298284,"lon":144.96286},
{"Name":"Studio 466","Address":"466 City Road, South Melbourne, VIC 3205","lat":-37.83100655,"lon":144.95373318287},
{"Name":"Top of the Town","Address":"516-518 Flinders St, Melbourne VIC 3000","lat":-37.8182959,"lon":144.9648777},
{"Name":"Treasure Topes","Address":"43 Tope Street, South Melbourne, VIC 3205","lat":-37.8312673,"lon":144.9635188},
{"Name":"26 Hocking","Address":"26 Hocking St, Coburg North VIC 3058","lat":-37.7276737,"lon":144.9562387},
{"Name":"Le Boudoir","Address":"81 Rokeby St, Collingwood VIC 3066","lat":-37.8067851,"lon":144.9880745},
{"Name":"Crystal Lodge","Address":"61 Trade Pl, Coburg North VIC 3058","lat":-37.7241319,"lon":144.9694597},
{"Name":"Hocking Ladies","Address":"20 Hocking St, Coburg North VIC 3058","lat":-37.7276737,"lon":144.9562387},
{"Name":"My Alibi","Address":"35A Northgate Drive Thomastown, VIC 3074","lat":-37.6910529481481,"lon":145.03919002963},
{"Name":"Oasis of the North","Address":"94-96 Trawalla Avenue, Thomastown, VIC 3074","lat":-37.6874463,"lon":144.9734531},
{"Name":"Oriental Plums","Address":"38 Tuscan Ct, Thomastown VIC 3074","lat":-37.68790205,"lon":145.005491650974},
{"Name":"Pleasure Planets","Address":"43 Lipton Dr, Thomastown VIC 3074","lat":-37.6900884,"lon":144.9977803},
{"Name":"Romantics","Address":"71 Colebrook St, Brunswick VIC 3056","lat":-37.7555331,"lon":144.9614726},
{"Name":"Show Me Fire","Address":"27 Fleet St, Somerton VIC 3062","lat":-37.643274,"lon":144.9607931},
{"Name":"Studio 54 Gentleman’s Club","Address":"54 Swanston St, Preston VIC 3072","lat":-37.747271,"lon":145.0333432},
{"Name":"Studio Honeys","Address":"3 Fleet Street, Somerton, VIC 3062","lat":-37.6427431,"lon":144.9603089},
{"Name":"Butterflys of Blackburn","Address":"11 King St. Blackburn, VIC 3130","lat":-37.8201876,"lon":145.1642385},
{"Name":"The Candy Club","Address":"392 Victoria St, Richmond 3121","lat":-37.8119347,"lon":145.0134889},
{"Name":"The Duchess","Address":"7/9 Duke St, Abbotsford VIC 3067","lat":-37.8102252,"lon":145.0054765},
{"Name":"Flame Angels","Address":"895 Mountain Hwy, Bayswater VIC 3153","lat":-37.8383373,"lon":145.2755784},
{"Name":"Oriental Angels","Address":"15 George St, Blackburn VIC 3130","lat":-37.8200329,"lon":145.1562726},
{"Name":"Pussy Cats","Address":"3 Leslie Ct, Burwood VIC 3125","lat":-37.8582891,"lon":145.1123894},
{"Name":"Pussy Galore Heidelberg","Address":"31 Lillimur Ave, Heidelberg West VIC 3081","lat":-37.7312451,"lon":145.0479975},
{"Name":"Spoilers Relaxation Centre","Address":"14 Steven Court, Ringwood, VIC 3134","lat":-37.8200091,"lon":145.2194505},
{"Name":"Top 12 Rowville","Address":"Unit 4/12 Mosrael Pl, Rowville VIC 3178","lat":-37.9060074,"lon":145.2386493},
{"Name":"69 Relaxation","Address":"169A Malop St, Geelong VIC 3220","lat":-38.1467738,"lon":144.3589291},
{"Name":"Bayside Angels","Address":"6 Hamlet Street, Cheltenham, Vic 3192","lat":-37.9569914,"lon":145.0404975},
{"Name":"The Bignell","Address":"6 Bignell Road, Moorabbin, South VIC 3196","lat":-37.942413,"lon":145.067873},
{"Name":"The Black Opal","Address":"12 Dandenong St, Dandenong, VIC 3175","lat":-37.9937145,"lon":145.1996345},
{"Name":"Blue Krystal","Address":"16 Greens Road, Dandenong, VIC 3175","lat":-38.0108407,"lon":145.1800027},
{"Name":"California Club","Address":"30 St Kilda Rd, St Kilda VIC 3182","lat":-37.8624563,"lon":144.9847875},
{"Name":"Cherry Tree Garden","Address":"18 Albemarle St, Williamstown North VIC 3016","lat":-37.850891,"lon":144.8630149},
{"Name":"Club 859","Address":"859 Glenhuntly Road Caulfield South VIC 3162","lat":-37.887009,"lon":145.023986},
{"Name":"Club Eight (Club8)","Address":"8 Yiannis Court, Springvale, VIC 3171","lat":-37.933159,"lon":145.1419428},
{"Name":"Club Hallam","Address":"7 Rimfire Dr, Hallam VIC 3803","lat":-38.0189037,"lon":145.2725953},
{"Name":"Club Keys","Address":"67 Keys Rd, Moorabbin VIC 3189","lat":-37.9488043,"lon":145.0686643},
{"Name":"Club Pleasure","Address":"1309 North Rd, Huntingdale VIC 3166","lat":-37.9116972,"lon":145.1060054},
{"Name":"Dandy Belles","Address":"15-17 Maxwell Street, Dandenong, VIC 3175","lat":-38.0015641,"lon":145.2201932},
{"Name":"Fantasy Dreams","Address":"10 Graham Rd, Clayton South VIC 3169","lat":-37.9522473,"lon":145.1334326},
{"Name":"Fetish House","Address":"1 Edinburgh St, Oakleigh South VIC 3167","lat":-37.9154418,"lon":145.1121156},
{"Name":"Garden of Eden ","Address":"2-6 Centre Kirkham Rd, Dandenong VIC 3175","lat":-37.9971109,"lon":145.1951346},
{"Name":"Georgie’s Place","Address":"977 Glenhuntly Road, Caulfield, VIC 3162","lat":-37.887943,"lon":145.031195},
{"Name":"Maison D’Amour","Address":"33 Graham Rd, Clayton South VIC 3169","lat":-37.9522473,"lon":145.1334326},
{"Name":"Masquerades","Address":"142 Bridge Road, Keysborough, Vic 3173","lat":-37.9911529,"lon":145.191556},
{"Name":"Moon Club","Address":"26 Rhur Street, Dandenong South, VIC 3175","lat":-38.0085409,"lon":145.2068503},
{"Name":"New Palace","Address":"31 Aster Avenue, Carrum Downs, VIC 3201","lat":-38.102694,"lon":145.165289},
{"Name":"The Number 1","Address":"1 Joel Court, Moorabbin, Victoria 3189","lat":-37.9400533,"lon":145.0718026},
{"Name":"Oriental Orchids","Address":"23 Hume St, Huntingdale VIC 3166","lat":-37.9112371,"lon":145.1076706},
{"Name":"Oriental Leisure Paradise","Address":"47 Glendale Ave, Hastings VIC 3915","lat":-38.3068093,"lon":145.183806},
{"Name":"Paradise Angels","Address":"31 Wells Rd, Seaford VIC 3198","lat":-38.1241445,"lon":145.1340359},
{"Name":"Phoenix Relaxation Centre","Address":"10 Fulton St, Oakleigh South VIC 3167","lat":-37.9137311,"lon":145.1124581},
{"Name":"Presidential Suite","Address":"45 Keppler Circuit, Seaford VIC 3198","lat":-38.0977476,"lon":145.1512489},
{"Name":"Purple Garden Relaxation Centre","Address":"34 Warner St, Oakleigh VIC 3166","lat":-37.909753,"lon":145.1026116},
{"Name":"The Red Door","Address":"7 Heversham Dr, Seaford VIC 3198","lat":-38.1125752,"lon":145.1414635},
{"Name":"Red Lantern","Address":"17 Nicole Way, Dandenong South VIC 3175","lat":-38.0170496,"lon":145.2186799},
{"Name":"Red Light Relaxation Centre","Address":"44A Winterton Rd, Clayton VIC 3168","lat":-37.9245043,"lon":145.1351107},
{"Name":"Southern Comfort International","Address":"16 Citrus St, Braeside VIC 319","lat":-37.9911137,"lon":145.1089849},
{"Name":"Spellbound","Address":"9 Darbyshire St, Williamstown VIC 3016","lat":-37.8535872,"lon":144.8557174},
{"Name":"Ultimate Magic","Address":"623 Hawthorn Rd, Brighton East VIC 3187","lat":-37.9141641,"lon":145.0168068},
{"Name":"Ultimates of North Shore","Address":"4 Seaside Parade, North Shore VIC 3214","lat":-38.0992812,"lon":144.36843335},
{"Name":"Venus Babes","Address":"41 Downard St, Braeside VIC 3195","lat":-37.9913612,"lon":145.1110083},
{"Name":"Westminster Secrets","Address":"38 Westminster Road, Oakleigh, VIC 3166","lat":-37.903769,"lon":145.095441},
{"Name":"Club 741","Address":"741 Geelong Road, Brooklyn, VIC 3012","lat":-37.821224,"lon":144.834379},
{"Name":"The Forum Gentleman’s Club","Address":"20 Norton Dr, Melton VIC 3337","lat":-37.6917336,"lon":144.6003505},
{"Name":"Hot Gossip","Address":"42 Cromer Ave, Sunshine North VIC 3020","lat":-37.7602054,"lon":144.8330642},
{"Name":"Ji Li Golden Hands Relaxation Centre","Address":"482 Geelong Rd, West Footscray VIC 3012","lat":-37.812825,"lon":144.861875},
{"Name":"Lorraine Starr","Address":"201 Malop Street, Geelong, VIC 3220","lat":-38.1467738,"lon":144.3589291},
{"Name":"Octopuses","Address":"24 Buchanan Rd, Brooklyn VIC 3012","lat":-37.824581,"lon":144.83632},
{"Name":"The Main Course","Address":"58 Dudley St, West Melbourne VIC 3003","lat":-37.808443,"lon":144.9550389},
{"Name":"Tender Touch 122","Address":"122 Dynon Road, Kensington, VIC 3031","lat":-37.803144,"lon":144.931578},
{"Name":"Westside X","Address":"60 Dudley Street, West Melbourne, VIC 3003","lat":-37.8085697,"lon":144.9549464},
{"Name":"Whispers Studio","Address":"32 Dunlop Road, Hoppers Crossing, VIC 3030","lat":-37.8709788,"lon":144.724562},
{"Name":"Ada Rose Studio","Address":"205 South Terrace, Fremantle WA 6160 ","lat":-32.0567497,"lon":115.7493932},
{"Name":"Casey’s Massage","Address":"56 Edward Street,East Perth, WA 6004","lat":-31.9485196,"lon":115.8712264},
{"Name":"City West Massage","Address":"5 Oxford Cl, Leederville WA 6007","lat":-31.9421786,"lon":115.8414652},
{"Name":"Club 316","Address":"316 Charles Street, North Perth WA 6006 ","lat":-31.9360085,"lon":115.8526323},
{"Name":"International 300","Address":"300 Pier St, Perth WA 6000","lat":-31.944254,"lon":115.8692475},
{"Name":"Langtrees of Perth","Address":"71 Burswood Rd, Burswood WA 6100","lat":-31.9676943,"lon":115.8947629},
{"Name":"Questa Casa","Address":"133 Hay St. Kalgoorlie WA 6430","lat":-30.7601727,"lon":121.4564815},
{"Name":"244 Paddington","Address":"1/244 Oxford St, Paddington NSW 2021","lat":-33.8892422,"lon":151.2328662},
{"Name":"429 City","Address":"429A Pitt St, Sydney, NSW 2000","lat":46.2543092467945,"lon":-60.210774594234},
{"Name":"Bellevue 12","Address":"12 Bellevue St, Surry Hills NSW 2010","lat":-33.8841939,"lon":151.2112609},
{"Name":"Black Cat Parlour","Address":"479 Elizabeth St, Surry Hills NSW 2010","lat":-33.8838602,"lon":151.2082636},
{"Name":"Club 121","Address":"121 Pyrmont St, Pyrmont NSW 2009","lat":-33.871281,"lon":151.1960106},
{"Name":"Dream Girl 130","Address":"Level 1, 130 Botany Rd Alexandria NSW 2015","lat":-33.89863,"lon":151.199805},
{"Name":"Ginza Club","Address":"310 Cleveland St, Surry Hills NSW 2010","lat":-33.8919945,"lon":151.2160446},
{"Name":"Hanabi 359","Address":"359 Riley Street, Surry Hills, NSW 2010","lat":-33.8876481,"lon":151.2121096},
{"Name":"Kyoto 206","Address":"206 Commonwealth St, Surry Hills NSW 2010","lat":-33.88334235,"lon":151.210344980453},
{"Name":"The New Golden Apple","Address":"377 Riley Street, Surry Hills, NSW 2010","lat":-33.8876481,"lon":151.2121096},
{"Name":"Penny’s 77","Address":"1st floor, 77A Enmore Road, Newtown, Sydney, NSW 2042","lat":-33.898501,"lon":151.174988},
{"Name":"The Penthouse","Address":"250 Pitt Street, Sydney CBD NSW 2000","lat":-33.8727011,"lon":151.208431574288},
{"Name":"Pyrmont 200","Address":"200-202 Harris St, Pyrmont NSW 2009","lat":-33.8747666,"lon":151.1968395},
{"Name":"Sakura 57/Grand 57","Address":"2/57 Reservoir St, Surry Hills NSW 2010","lat":-33.8813482,"lon":151.2121315},
{"Name":"Thai City","Address":"43 Albion St, Surry Hills, NSW 2010","lat":-33.8839451,"lon":151.2175323},
{"Name":"Tiffany’s","Address":"99 Albion Street, Surry Hills, NSW 2010","lat":-33.8839451,"lon":151.2175323},
{"Name":"Top 127","Address":"127 Regent St, Chippendale NSW 2008","lat":-33.8880845,"lon":151.2013077},
{"Name":"Fantasy Club 35","Address":"33/35 Parramatta Rd, Annandale NSW 2038","lat":-33.8875069,"lon":151.1722702},
{"Name":"The Gateway Club","Address":"474 Parramatta Rd, Petersham NSW 2049","lat":-33.8881673,"lon":151.1582298},
{"Name":"Kelly’s Asian Flowers","Address":"9/34 East St, Five Dock NSW 2046","lat":-33.8664119,"lon":151.1291677},
{"Name":"Marrickville Brothel","Address":"143 Marrickville Rd, Marrickville NSW 2204","lat":-33.9148623,"lon":151.1640456},
{"Name":"Spring House","Address":"46 Sydenham Rd, Marrickville NSW 2204","lat":-33.9104632,"lon":151.1633326},
{"Name":"Stiletto","Address":"82 Parramatta Road,  Camperdown NSW 2050","lat":-33.88555535,"lon":151.180753803897},
{"Name":"Wives Only","Address":"673 King Street, St Peters NSW 2044","lat":-33.9086422,"lon":151.1811598},
{"Name":"Zinia","Address":"2/81-89 Cosgrove Rd, Strathfield NSW 2135","lat":-33.9063668,"lon":151.0787445},
{"Name":"105 Pymble House","Address":"105 Grandview St, Pymble NSW 2073","lat":-33.7442333,"lon":151.1413398},
{"Name":"Centrefolds","Address":"27 Clarendon St, Artarmon NSW 2064","lat":-33.8160622,"lon":151.1839035},
{"Name":"Diamond 81A Crows Nest ","Address":"81A Willoughby Rd, Crows Nest NSW 2065","lat":-33.8246348,"lon":151.2009011},
{"Name":"Hornsby 142","Address":"142 George St, Hornsby NSW 2077","lat":-33.7037165,"lon":151.0989461},
{"Name":"Hornsby 280","Address":"280 Peats Ferry Rd, Hornsby NSW 2077","lat":-33.6916445,"lon":151.0987986},
{"Name":"The House at Hornsby","Address":"F/2a Dural St, Hornsby NSW 2077","lat":-33.702534,"lon":151.096824},
{"Name":"Miss Heavens","Address":"6 Cleg St, Artarmon, NSW 2064","lat":-33.8151233,"lon":151.1899375},
{"Name":"La Petite Aroma","Address":"26 Railway St, Chatswood NSW 2067 (North Shore)","lat":-33.795093,"lon":151.180093},
{"Name":"Roseville Rose","Address":"104 Pacific Hwy, Roseville NSW 2069","lat":-33.7828701,"lon":151.1725015},
{"Name":"Victoria’s Secrets","Address":"161 Victoria Ave, Chatswood NSW 2067","lat":-33.7948762,"lon":151.1876844},
{"Name":"Desires of Brookvale","Address":"18 Chard Rd, Brookvale, NSW 2100","lat":-33.7634182,"lon":151.2744979},
{"Name":"Doll House","Address":"191 Condamine Street, Balgowlah, NSW 2093","lat":-33.7950115,"lon":151.2647271},
{"Name":"Playgirls","Address":"14A Roger Street, Brookvale, 2100","lat":-33.7633412,"lon":151.2700906},
{"Name":"22 Rydalmere","Address":"22 Brodie St, Rydalmere NSW 2116","lat":-33.812031,"lon":151.0289091},
{"Name":"Lipstick","Address":"19 Brodie St, Rydalmere NSW 2116","lat":-33.812031,"lon":151.0289091},
{"Name":"Royal Asian Brothel","Address":"12 Euston St Rydalmere, Sydney NSW 2116","lat":-33.8118753,"lon":151.0346033},
{"Name":"Bondi Ladies","Address":"2/6A Gray St, Bondi Junction NSW 2022","lat":-33.8933477,"lon":151.2505918},
{"Name":"Liaisons Executive Retreat","Address":"535 Glenmore Road Edgecliff, NSW 2027","lat":-33.8780097,"lon":151.2336384},
{"Name":"Jingle Bells","Address":"14 Sleigh Place, Wetherill Park NSW 2164","lat":-33.83912,"lon":150.8824013},
{"Name":"32 Berry","Address":"32 Berry St, Clyde NSW 2142","lat":-33.834116,"lon":151.017742},
{"Name":"45 George","Address":"45 George St, Granville NSW 2142","lat":-33.832508,"lon":151.01857},
{"Name":"7 Cowper","Address":"7 Cowper St, Granville NSW 2142","lat":-33.832495,"lon":151.015033},
{"Name":"99 Forever/No 185 Guildford","Address":"185 Military Rd, Guildford NSW 2161, Australia","lat":-33.853727,"lon":150.984597},
{"Name":"Ashfield 295","Address":"295 Liverpool Rd, Ashfield NSW 2131","lat":-33.8880072,"lon":151.1237531},
{"Name":"Asians at Smithfield","Address":"1/72/80 Percival Rd, Smithfield NSW 2164","lat":-33.840945,"lon":150.949291},
{"Name":"Blacktown 40","Address":"2/40 Forge St, Blacktown NSW 2148","lat":-33.7524015,"lon":150.9104547},
{"Name":"Breathless","Address":"87-93 Henry St (rear), Penrith NSW","lat":-33.752371,"lon":150.699305},
{"Name":"Cleopatra’s Gentleman’s Club","Address":"12 Hargraves Pl, Wetherill Park NSW 2164","lat":-33.8431557,"lon":150.9005821},
{"Name":"Club 10","Address":"10 Guernsey Street, Guildford, NSW 2161","lat":-33.8600766,"lon":150.9782924},
{"Name":"Club 220","Address":"220 Great Western Hwy, Kingswood NSW 2747","lat":-33.7569785,"lon":150.7122901},
{"Name":"No. 3 Fairfield","Address":" 3 Alan St, Fairfield NSW 2165","lat":-33.8693565,"lon":150.9595883},
{"Name":"Ma Belle Cheri","Address":"8 Wentworth Street, Granville, NSW 2142","lat":-33.833463,"lon":151.020411},
{"Name":"Marsh 10","Address":"10 Marsh Street, Clyde, NSW 2142","lat":-33.833349,"lon":151.016084},
{"Name":"Midnight Delight","Address":"25 Wentworth Street, Parramatta, NSW 2150","lat":-33.8184708,"lon":151.0052134},
{"Name":"Penrith 423","Address":"423 High St, Penrith NSW 2750","lat":-33.7477938,"lon":150.6840081},
{"Name":"Queens 130","Address":"1/130 Queen St, St Marys, NSW 2760","lat":-33.7666358,"lon":150.7740344},
{"Name":"Taylor’s Gentlemen’s Retreat","Address":"361 Edwards Pl, Penrith NSW 2750","lat":-33.7534292,"lon":150.6992268},
{"Name":"Venus 361","Address":"12 Cottam Ave, Bankstown NSW 2200","lat":-33.9313934,"lon":151.0344443},
{"Name":"12 Cottam","Address":"12 Cottam Ave, Bankstown NSW 2200","lat":-33.9313934,"lon":151.0344443},
{"Name":"Casablanca","Address":"239 Northumberland St, Liverpool NSW 2170","lat":-33.9214818,"lon":150.9226683},
{"Name":"King’s Court","Address":"261 Parramatta Rd, Glebe NSW 2037","lat":-33.8847473,"lon":151.1909086},
{"Name":"Men’s Paradise","Address":"231 George St, Liverpool NSW 2170","lat":-33.9241285,"lon":150.9246193},
{"Name":"Pink Lady","Address":"53 Beresford Ave, Greenacre NSW 2190","lat":-33.9038396,"lon":151.0393469},
{"Name":"Sexy 9","Address":"9 Exceller Ave, Bankstown NSW 2200","lat":-33.9336202,"lon":151.035081},
{"Name":"327 Riverwood","Address":"327A Belmore Rd, Riverwood NSW 2210","lat":-33.9523223,"lon":151.0520165},
{"Name":"64 Alexander Taren Point","Address":"64 Alexander Ave, Taren Point NSW 2229","lat":-34.01964,"lon":151.124279},
{"Name":"65 Carlton","Address":"65 Planthurst Rd, Carlton NSW 2218","lat":-33.9752073,"lon":151.1191719},
{"Name":"167 Mascara","Address":"2/167 Taren Point Road, Caringbah, NSW 2229","lat":-34.0243036,"lon":151.1209089},
{"Name":"AA485","Address":"485 Princes Hwy, Rockdale NSW 2216","lat":-33.9484171,"lon":151.140005},
{"Name":"Cougar Town","Address":"184B Belmore Rd, Riverwood NSW 2210","lat":-33.9523223,"lon":151.0520165},
{"Name":"Marlene’s","Address":"24 Bourke Rd, Alexandria NSW 2015","lat":-33.9102355,"lon":151.195634},
{"Name":"Narwee Girls","Address":"1/52 Broad Arrow Road, Narwee NSW 2209","lat":-33.949031,"lon":151.0670148},
{"Name":"Studio Relax","Address":"17 Bermill St, Rockdale NSW 2216","lat":-33.9600631,"lon":151.1463587},
{"Name":"Zinia","Address":"311 Princes Highway, Banksia, NSW 2216","lat":-33.9469395,"lon":151.1407871}]